{
  "items" : {
    "-KBA_rTphoAbNZvXZZA7" : {
      "country" : "España",
      "distance" : "500",
      "lat" : 40.4244585,
      "lng" : -3.6990948,
      "name" : "Andreas",
      "postalCode" : "28004",
      "town" : "Madrid"
    },
    "-KBA_rTuC4jq2T0LEypW" : {
      "country" : "Canadá",
      "distance" : "100",
      "lat" : 43.6453796,
      "lng" : -79.3936722,
      "name" : "marko",
      "postalCode" : "m5v3g8",
      "town" : "Toronto"
    },
    "-KBA_rTvmOON2XOFAb9O" : {
      "country" : "Estados Unidos",
      "distance" : "100",
      "lat" : 37.8824054,
      "lng" : -122.026918,
      "name" : "Eduardo Gonzalez",
      "postalCode" : "94596",
      "town" : "Walnut Creek"
    },
    "-KBA_rTw9QpbVrQc7-jf" : {
      "country" : "Estados Unidos",
      "distance" : "50",
      "lat" : 33.5974299,
      "lng" : -117.8370041,
      "name" : "Jon",
      "postalCode" : "92657",
      "town" : ""
    },
    "-KBA_rTxGe9GJYJVR6qd" : {
      "country" : "Estados Unidos",
      "distance" : "40",
      "lat" : 47.837259,
      "lng" : -122.2155192,
      "name" : "Martin Wilter",
      "postalCode" : "98012",
      "town" : "Bothell"
    },
    "-KBA_rTymbI0mjEonZZU" : {
      "country" : "Estados Unidos",
      "distance" : "50",
      "lat" : 39.7042328,
      "lng" : -84.0740462,
      "name" : "Corey",
      "postalCode" : "45430",
      "town" : "Dayton"
    },
    "-KBA_rU-rjC1jCWv639p" : {
      "country" : "Estados Unidos",
      "distance" : "50",
      "lat" : 35.6264403,
      "lng" : -97.5138947,
      "name" : "Dallas",
      "postalCode" : "73013",
      "town" : "Edmond"
    },
    "-KBA_rU-rjC1jCWv639q" : {
      "country" : "Estados Unidos",
      "distance" : "50",
      "lat" : 37.5677679,
      "lng" : -122.0522177,
      "name" : "uv",
      "postalCode" : "94555",
      "town" : "Fremont"
    },
    "-KBA_rU1C5cydo7bOkRE" : {
      "country" : "Estados Unidos",
      "distance" : "25",
      "lat" : 47.7398257,
      "lng" : -122.3680128,
      "name" : "Andy",
      "postalCode" : "98177",
      "town" : "Seattle"
    },
    "-KBA_rU2qY3qzDXPFru1" : {
      "country" : "Estados Unidos",
      "distance" : "100",
      "lat" : 30.372807,
      "lng" : -91.18330429999999,
      "name" : "Ravi",
      "postalCode" : "70820",
      "town" : "Baton Rouge"
    },
    "-KBA_rU3dqWavU4cwfiZ" : {
      "country" : "Estados Unidos",
      "distance" : "40",
      "lat" : 33.473501,
      "lng" : -84.5012435,
      "name" : "Eric Martz",
      "postalCode" : "30214",
      "town" : "Fayetteville"
    },
    "-KBA_rU4UgxOTPU8VuMT" : {
      "country" : "Austria",
      "distance" : "20040",
      "lat" : 46.7231037,
      "lng" : 15.7653147,
      "name" : "martin-martin",
      "postalCode" : "8480",
      "town" : ""
    },
    "-KBA_rU57tr_94VgLDCq" : {
      "country" : "Estados Unidos",
      "distance" : "30",
      "lat" : 33.723039,
      "lng" : -84.3436881,
      "name" : "Kyle",
      "postalCode" : "30316",
      "town" : "Atlanta"
    },
    "-KBA_rU57tr_94VgLDCr" : {
      "country" : "Estados Unidos",
      "distance" : "40",
      "lat" : 45.1056514,
      "lng" : -93.4892746,
      "name" : "Jim",
      "postalCode" : "55311",
      "town" : "Osseo"
    },
    "-KBA_rU6L3YYpZyAf7Ha" : {
      "country" : "Estados Unidos",
      "distance" : "40",
      "lat" : 37.3003688,
      "lng" : -122.0492891,
      "name" : "Kacyn",
      "postalCode" : "95014",
      "town" : "Cupertino"
    },
    "-KBA_rU7NnAfp3K_VUhT" : {
      "country" : "India",
      "distance" : "10",
      "lat" : 28.4554726,
      "lng" : 77.0219019,
      "name" : "Shouvik",
      "postalCode" : "122001",
      "town" : "Gurgaon"
    },
    "-KBA_rU7NnAfp3K_VUhU" : {
      "country" : "Australia",
      "distance" : "500",
      "lat" : -33.0218853,
      "lng" : 148.2804541,
      "name" : "Mat",
      "postalCode" : "2870",
      "town" : ""
    },
    "-KBA_rU9qTurF2Jan8Np" : {
      "country" : "Estados Unidos",
      "distance" : "30",
      "lat" : 37.3895297,
      "lng" : -122.0183914,
      "name" : "Randeep",
      "postalCode" : "94085",
      "town" : "Sunnyvale"
    },
    "-KBA_rU9qTurF2Jan8Nq" : {
      "country" : "Estados Unidos",
      "distance" : "30",
      "lat" : 39.7775841,
      "lng" : -105.1083542,
      "name" : "Natasha Japp",
      "postalCode" : "80033",
      "town" : "Wheat Ridge"
    },
    "-KBA_rUC5dDVZjbB81dW" : {
      "country" : "Estados Unidos",
      "distance" : "20",
      "lat" : 39.908085,
      "lng" : -75.1953934,
      "name" : "Mark",
      "postalCode" : "19145",
      "town" : "Filadelfia"
    },
    "-KBA_rUC5dDVZjbB81dX" : {
      "country" : "Estados Unidos",
      "distance" : "10",
      "lat" : 37.2638319,
      "lng" : -122.023004,
      "name" : "MsLaura",
      "postalCode" : "95070",
      "town" : "Saratoga"
    },
    "-KBA_rUDxvzkQSnvbvFF" : {
      "country" : "India",
      "distance" : "20",
      "lat" : 28.6078909,
      "lng" : 77.3054884,
      "name" : "Harshit",
      "postalCode" : "110091",
      "town" : "Nueva Delhi"
    },
    "-KBA_rUFLGe_NY4wQ6hW" : {
      "country" : "Rusia",
      "distance" : "50",
      "lat" : 55.4616172,
      "lng" : 37.2948354,
      "name" : "A",
      "postalCode" : "142190",
      "town" : ""
    },
    "-KBA_rUGPYE8yslcZcZ-" : {
      "country" : "Estados Unidos",
      "distance" : "60",
      "lat" : 38.4244019,
      "lng" : -121.3312882,
      "name" : "Rasheed",
      "postalCode" : "95624",
      "town" : "Elk Grove"
    },
    "-KBA_rUH39U4ZH0onBv5" : {
      "country" : "Rusia",
      "distance" : "200",
      "lat" : 55.6932097,
      "lng" : 37.5495829,
      "name" : "Mark",
      "postalCode" : "119296",
      "town" : "Moscú"
    },
    "-KBA_rUIcFgKWufbQzhs" : {
      "country" : "Estados Unidos",
      "distance" : "16",
      "lat" : 37.3785351,
      "lng" : -122.086585,
      "name" : "Nija",
      "postalCode" : "94040 ",
      "town" : "Mountain View"
    },
    "-KBA_rUIcFgKWufbQzht" : {
      "country" : "Estados Unidos",
      "distance" : "20",
      "lat" : 30.3658304,
      "lng" : -81.49379929999999,
      "name" : "Dino",
      "postalCode" : "32225",
      "town" : "Jacksonville"
    },
    "-KBA_rUW2lCJVBOyFJO4" : {
      "country" : "Estados Unidos",
      "distance" : "100",
      "lat" : 42.9511374,
      "lng" : -82.5402275,
      "name" : "Kyle",
      "postalCode" : "48074",
      "town" : "Smiths Creek"
    },
    "-KBA_rUXrFLg3eEuMfIZ" : {
      "country" : "Singapur",
      "distance" : "10",
      "lat" : 1.293822,
      "lng" : 103.803042,
      "name" : "Joshua",
      "postalCode" : "140153",
      "town" : "Singapore"
    },
    "-KBA_rUXrFLg3eEuMfI_" : {
      "country" : "Austria",
      "distance" : "100",
      "lat" : 48.1564641,
      "lng" : 16.3910684,
      "name" : "Milo",
      "postalCode" : "1100",
      "town" : "Vienna"
    },
    "-KBA_rUYWTJVqbZmhaLu" : {
      "country" : "Italia",
      "distance" : "100",
      "lat" : 45.6807229,
      "lng" : 11.6449395,
      "name" : "Angelo",
      "postalCode" : "36060",
      "town" : ""
    },
    "-KBA_rUfXu9vrSSQKiDu" : {
      "country" : "Francia",
      "distance" : "200",
      "lat" : 50.670738,
      "lng" : 2.8429201,
      "name" : "Cyril",
      "postalCode" : "59193",
      "town" : "Erquinghem-Lys"
    },
    "-KBA_rUgWEn4CDUgBm0A" : {
      "country" : "Ucrania",
      "distance" : "500",
      "lat" : 49.233083,
      "lng" : 28.468217,
      "name" : "p",
      "postalCode" : "21001",
      "town" : "Vinnytsia"
    },
    "-KBA_rUhmq3XGvKE32-T" : {
      "country" : "Estados Unidos",
      "distance" : "600",
      "lat" : 28.8360637,
      "lng" : -82.269193,
      "name" : "Katerina ",
      "postalCode" : "34450/1712",
      "town" : "Inverness"
    },
    "-KBA_rUi0mkD1x-ep0Ia" : {
      "country" : "Estados Unidos",
      "distance" : "25",
      "lat" : 37.9538109,
      "lng" : -121.9643745,
      "name" : "Anna",
      "postalCode" : "94521",
      "town" : "Concord"
    },
    "-KBA_rUj68eFMKWGFw4j" : {
      "country" : "Estados Unidos",
      "distance" : "80",
      "lat" : 43.14831710000001,
      "lng" : -88.7301525,
      "name" : "Charlene",
      "postalCode" : "53094",
      "town" : "Watertown"
    },
    "-KBA_rUj68eFMKWGFw4k" : {
      "country" : "Polonia",
      "distance" : "100",
      "lat" : 51.0930709,
      "lng" : 16.9744434,
      "name" : "Grzesiek",
      "postalCode" : "53-239",
      "town" : "Wrocław"
    },
    "-KBA_rUkO76ZcQ2nLqWX" : {
      "country" : "Estados Unidos",
      "distance" : "50",
      "lat" : 42.8104135,
      "lng" : -70.8892886,
      "name" : "Kerry",
      "postalCode" : "01950",
      "town" : "Newburyport"
    },
    "-KBA_rUl_C6lIDEvLRhr" : {
      "country" : "Estados Unidos",
      "distance" : "10",
      "lat" : 39.9396284,
      "lng" : -75.18663959999999,
      "name" : "Phil",
      "postalCode" : "19146",
      "town" : "Filadelfia"
    },
    "-KBA_rUl_C6lIDEvLRhs" : {
      "country" : "Reino Unido",
      "distance" : "1000",
      "lat" : 51.2404551,
      "lng" : -0.9452066,
      "name" : "Benjamin Fraser",
      "postalCode" : "RG29 1QT",
      "town" : "Odiham"
    },
    "-KBA_rUmB8reTILTjtI4" : {
      "country" : "Estados Unidos",
      "distance" : "5",
      "lat" : 40.5944059,
      "lng" : -74.0711359,
      "name" : "Alyona",
      "postalCode" : "10305",
      "town" : ""
    },
    "-KBA_rUnbdZmayOZ3ZSJ" : {
      "country" : "Estados Unidos",
      "distance" : "200",
      "lat" : 25.7616792,
      "lng" : -80.34915989999999,
      "name" : "Syed",
      "postalCode" : "33174",
      "town" : "Miami"
    },
    "-KBA_rUoXTpKGHJtKQeW" : {
      "country" : "Estados Unidos",
      "distance" : "50",
      "lat" : 33.6496252,
      "lng" : -117.9190418,
      "name" : "Ben",
      "postalCode" : "92627",
      "town" : "Costa Mesa"
    },
    "-KBA_rUoXTpKGHJtKQeX" : {
      "country" : "India",
      "distance" : "1000",
      "lat" : 13.0487446,
      "lng" : 77.5923297,
      "name" : "Vishnu Pillai",
      "postalCode" : "560024",
      "town" : "Bangalore"
    },
    "-KBA_rUpfajPnHZdJIXK" : {
      "country" : "Alemania",
      "distance" : "50",
      "lat" : 53.55524940000001,
      "lng" : 9.9807553,
      "name" : "Christian",
      "postalCode" : "20355",
      "town" : "Hamburgo"
    },
    "-KBA_rUpfajPnHZdJIXL" : {
      "country" : "Estados Unidos",
      "distance" : "500",
      "lat" : 32.7361498,
      "lng" : -97.802737,
      "name" : "Deanna",
      "postalCode" : "76086",
      "town" : "Weatherford"
    },
    "-KBA_rUr47fiaLj-Ycap" : {
      "country" : "Estados Unidos",
      "distance" : "30",
      "lat" : 37.371859,
      "lng" : -122.0212337,
      "name" : "Bhargavi",
      "postalCode" : "94086",
      "town" : "Sunnyvale"
    },
    "-KBA_rUr47fiaLj-Ycaq" : {
      "country" : "Estados Unidos",
      "distance" : "200",
      "lat" : 36.3809052,
      "lng" : -87.6482474,
      "name" : "Zoltan",
      "postalCode" : "37050",
      "town" : "Cumberland City"
    },
    "-KBA_rUsOYJUOfyyP-u1" : {
      "country" : "India",
      "distance" : "5000",
      "lat" : 13.2974227,
      "lng" : 77.1830243,
      "name" : "Mahakeerthi",
      "postalCode" : "572104",
      "town" : ""
    },
    "-KBA_rUsOYJUOfyyP-u2" : {
      "country" : "Estados Unidos",
      "distance" : "100",
      "lat" : 35.8150476,
      "lng" : -78.57744079999999,
      "name" : "RaleighNC_Android",
      "postalCode" : "27604",
      "town" : "Raleigh"
    },
    "-KBA_rUtfPehy9SJxB9J" : {
      "country" : "Estados Unidos",
      "distance" : "50",
      "lat" : 37.68000019999999,
      "lng" : -122.4863492,
      "name" : "Brody Chen",
      "postalCode" : "94015",
      "town" : "Daly City"
    },
    "-KBA_rUtfPehy9SJxB9K" : {
      "country" : "Australia",
      "distance" : "50",
      "lat" : -27.4522751,
      "lng" : 153.0353622,
      "name" : "Alex Kamrath",
      "postalCode" : "4006",
      "town" : "Brisbane"
    },
    "-KBA_rUur7edNnRKRzy6" : {
      "country" : "Estados Unidos",
      "distance" : "100",
      "lat" : 39.42052959999999,
      "lng" : -76.79135579999999,
      "name" : "Ebow Yawson",
      "postalCode" : "21117",
      "town" : "Owings Mills"
    },
    "-KBA_rUur7edNnRKRzy7" : {
      "country" : "Alemania",
      "distance" : "50",
      "lat" : 51.248009,
      "lng" : 6.7790167,
      "name" : "James",
      "postalCode" : "40476",
      "town" : "Düsseldorf"
    },
    "-KBA_rUv-eV0Kkp66PhR" : {
      "country" : "Australia",
      "distance" : "20",
      "lat" : -33.8479652,
      "lng" : 150.6517354,
      "name" : "Gareth",
      "postalCode" : "2745",
      "town" : "Sídney"
    },
    "-KBA_rUv-eV0Kkp66PhS" : {
      "country" : "Estados Unidos",
      "distance" : "50",
      "lat" : 43.0651073,
      "lng" : -83.624201,
      "name" : "Jacob",
      "postalCode" : "48506",
      "town" : "Flint"
    },
    "-KBA_rUwmVhpMlIzmSX4" : {
      "country" : "Estados Unidos",
      "distance" : "500",
      "lat" : 41.748902,
      "lng" : -88.0363086,
      "name" : "kevin",
      "postalCode" : "60517",
      "town" : "Woodridge"
    },
    "-KBA_rUxs-7sYva1OzlZ" : {
      "country" : "Sudáfrica",
      "distance" : "50",
      "lat" : -26.1206807,
      "lng" : 28.0537367,
      "name" : "Mike",
      "postalCode" : "2196",
      "town" : "Sandton"
    },
    "-KBA_rUy5uZn1NxM8MBT" : {
      "country" : "Reino Unido",
      "distance" : "100",
      "lat" : 51.8244561,
      "lng" : -0.8179964,
      "name" : "Bhekinkosi G Sigidi",
      "postalCode" : "HP19 9QP",
      "town" : "Aylesbury"
    },
    "-KBA_rUy5uZn1NxM8MBU" : {
      "country" : "Uruguay",
      "distance" : "2500",
      "lat" : -34.9100207,
      "lng" : -56.1504985,
      "name" : "Maximiliano Pombo",
      "postalCode" : "11300",
      "town" : "Montevideo"
    },
    "-KBA_rUzMGW9000fX_SS" : {
      "country" : "Alemania",
      "distance" : "200",
      "lat" : 49.2367587,
      "lng" : 12.5554758,
      "name" : "andreas",
      "postalCode" : "93483",
      "town" : "Pösing"
    },
    "-KBA_rV-n4w2n7vaZmFJ" : {
      "country" : "Estados Unidos",
      "distance" : "5000",
      "lat" : 61.14876899999999,
      "lng" : -149.8010811,
      "name" : "James Ives",
      "postalCode" : "99507",
      "town" : "Anchorage"
    },
    "-KBA_rV-n4w2n7vaZmFK" : {
      "country" : "Estados Unidos",
      "distance" : "25",
      "lat" : 37.8020405,
      "lng" : -122.4382307,
      "name" : "Acronym",
      "postalCode" : "94123",
      "town" : "San Francisco"
    },
    "-KBA_rV2WAv0x8qe-8xI" : {
      "country" : "Dinamarca",
      "distance" : "10",
      "lat" : 55.6928897,
      "lng" : 12.547805,
      "name" : "Niels Lindberg-Poulsen",
      "postalCode" : "2200",
      "town" : "København"
    },
    "-KBA_rV3rrzeRcMKMhRJ" : {
      "country" : "Estados Unidos",
      "distance" : "50",
      "lat" : 33.9372725,
      "lng" : -118.1298234,
      "name" : "ivan",
      "postalCode" : "90241",
      "town" : "Downey"
    },
    "-KBA_rV3rrzeRcMKMhRK" : {
      "country" : "Estados Unidos",
      "distance" : "7000",
      "lat" : 47.743604,
      "lng" : -117.4095934,
      "name" : "Ryan",
      "postalCode" : "0297",
      "town" : "Spokane"
    },
    "-KBA_rV5SSlf-Cel6Bi4" : {
      "country" : "Estados Unidos",
      "distance" : "1240000000",
      "lat" : 26.2474478,
      "lng" : -80.09260139999999,
      "name" : "slavo",
      "postalCode" : "33062",
      "town" : "Pompano Beach"
    },
    "-KBA_rV6-qcCsCtBzKkj" : {
      "country" : "Canadá",
      "distance" : "36.4 ",
      "lat" : 43.4816859,
      "lng" : -79.7079096,
      "name" : "Luis Navarrete",
      "postalCode" : "L6H 4W2",
      "town" : "Oakville"
    },
    "-KBA_rV6-qcCsCtBzKkk" : {
      "country" : "Estados Unidos",
      "distance" : "1000",
      "lat" : 37.5677679,
      "lng" : -122.0522177,
      "name" : "umang",
      "postalCode" : "94555",
      "town" : "Fremont"
    },
    "-KBA_rVAvbH_EvHcvmsV" : {
      "country" : "Australia",
      "distance" : "20",
      "lat" : -33.8657305,
      "lng" : 151.20733,
      "name" : "Jezz",
      "postalCode" : "2000",
      "town" : "Sídney"
    },
    "-KBA_rVBKIzhAKXUFcEh" : {
      "country" : "Estados Unidos",
      "distance" : "2",
      "lat" : 34.043925,
      "lng" : -118.2424291,
      "name" : "Gabriele",
      "postalCode" : "90013",
      "town" : "Los Ángeles"
    },
    "-KBA_rVBKIzhAKXUFcEi" : {
      "country" : "Estados Unidos",
      "distance" : "100",
      "lat" : 42.3043674,
      "lng" : -73.2460582,
      "name" : "Abigail",
      "postalCode" : "01238",
      "town" : "Lee"
    },
    "-KBA_rVClbw9ZI8TYDyb" : {
      "country" : "Estados Unidos",
      "distance" : "1500",
      "lat" : 35.8520207,
      "lng" : -86.4594276,
      "name" : "Justin",
      "postalCode" : "37128",
      "town" : "Murfreesboro"
    },
    "-KBA_rVClbw9ZI8TYDyc" : {
      "country" : "Estados Unidos",
      "distance" : "40",
      "lat" : 42.2129167,
      "lng" : -83.7305392,
      "name" : "John Zukowski",
      "postalCode" : "48108",
      "town" : "Ann Arbor"
    },
    "-KBA_rVDEWMBqFDR6jEC" : {
      "country" : "Australia",
      "distance" : "1500",
      "lat" : -27.4660994,
      "lng" : 153.023588,
      "name" : "Alex",
      "postalCode" : "4000",
      "town" : "Brisbane"
    },
    "-KBA_rVDEWMBqFDR6jED" : {
      "country" : "Turquía",
      "distance" : "600",
      "lat" : 41.2225817,
      "lng" : 29.0236315,
      "name" : "Katerina",
      "postalCode" : "34450",
      "town" : ""
    },
    "-KBA_rVEcmV54UgL5ZNf" : {
      "country" : "Canadá",
      "distance" : "100",
      "lat" : 45.5330112,
      "lng" : -73.60469049999999,
      "name" : "NaN",
      "postalCode" : "H2S",
      "town" : "Montreal"
    },
    "-KBA_rVGWhE-ecBQjr0n" : {
      "country" : "Estados Unidos",
      "distance" : "50",
      "lat" : 38.70360050000001,
      "lng" : -90.6488505,
      "name" : "Greg",
      "postalCode" : "63304",
      "town" : "St. Charles"
    },
    "-KBA_rVGWhE-ecBQjr0o" : {
      "country" : "Estados Unidos",
      "distance" : "160",
      "lat" : 64.87739859999999,
      "lng" : -148.3542567,
      "name" : "csgray",
      "postalCode" : "99709",
      "town" : "Fairbanks"
    },
    "-KBA_rVIv1xuCYN6Cv_f" : {
      "country" : "Alemania",
      "distance" : "100",
      "lat" : 48.1127929,
      "lng" : 11.5681872,
      "name" : "Wilfried Hoge",
      "postalCode" : "81543",
      "town" : "Múnich"
    },
    "-KBA_rVIv1xuCYN6Cv_g" : {
      "country" : "Estados Unidos",
      "distance" : "50",
      "lat" : 34.0796167,
      "lng" : -118.2585096,
      "name" : "Jacob",
      "postalCode" : "90026",
      "town" : "Los Ángeles"
    },
    "-KBA_rVJNldRk569twJQ" : {
      "country" : "Estados Unidos",
      "distance" : "50",
      "lat" : 37.7202042,
      "lng" : -122.4099154,
      "name" : "Philip",
      "postalCode" : "94134",
      "town" : "San Francisco"
    },
    "-KBA_rVJNldRk569twJR" : {
      "country" : "Estados Unidos",
      "distance" : "40",
      "lat" : 33.9734553,
      "lng" : -117.3263893,
      "name" : "Enrique Cahua",
      "postalCode" : "92507",
      "town" : "Riverside"
    },
    "-KBA_rVKqK80oH0bWGM9" : {
      "country" : "Estados Unidos",
      "distance" : "96",
      "lat" : 34.1286356,
      "lng" : -117.2089374,
      "name" : "Jason",
      "postalCode" : "92346",
      "town" : "Highland"
    },
    "-KBA_rVLBBD1A_eky8tv" : {
      "country" : "Estados Unidos",
      "distance" : "50",
      "lat" : 40.8267932,
      "lng" : -74.3176876,
      "name" : "Simon",
      "postalCode" : "07068",
      "town" : "Roseland"
    },
    "-KBA_rVLBBD1A_eky8tw" : {
      "country" : "Estados Unidos",
      "distance" : "50",
      "lat" : 43.0651073,
      "lng" : -83.624201,
      "name" : "Jacob",
      "postalCode" : "48506",
      "town" : "Flint"
    },
    "-KBAauRJBlEkchqvsSm9" : {
      "country" : "Corea del Sur",
      "distance" : "20000",
      "lat" : 35.907757,
      "lng" : 127.766922,
      "name" : "Yoongu Hwang",
      "postalCode" : "14306",
      "town" : ""
    },
    "-KBAavdgVRbzPivogFSt" : {
      "country" : "Chile",
      "distance" : "30",
      "lat" : -35.675147,
      "lng" : -71.542969,
      "name" : "Diego",
      "postalCode" : "7660219",
      "town" : ""
    },
    "-KBAazg_KSMSNEx6mMXp" : {
      "country" : "Kosovo",
      "distance" : "7500",
      "lat" : 42.6026359,
      "lng" : 20.902977,
      "name" : "Durim",
      "postalCode" : "10000",
      "town" : ""
    },
    "-KBAb-Rg2Lm-3dLpjhRz" : {
      "country" : "Australia",
      "distance" : "20",
      "lat" : -25.274398,
      "lng" : 133.775136,
      "name" : "Narayan",
      "postalCode" : "213r",
      "town" : ""
    },
    "-KBAb0c2GckY8nb3jdRG" : {
      "country" : "Hong Kong",
      "distance" : "20",
      "lat" : 22.396428,
      "lng" : 114.109497,
      "name" : "Jacky",
      "postalCode" : "000000",
      "town" : ""
    },
    "-KBAbFkgquQy4Q7eGhpr" : {
      "country" : "Estados Unidos",
      "distance" : "50",
      "lat" : 37.09024,
      "lng" : -95.712891,
      "name" : "Simon",
      "postalCode" : "07068",
      "town" : ""
    },
    "-KBCccU0qQ6kwmL8Hxu4" : {
      "country" : "USA",
      "distance" : "100",
      "lat" : 32.8601513,
      "lng" : -97.3641377,
      "name" : "Jamie",
      "postalCode" : "76179",
      "town" : "Fort Worth"
    },
    "-KBCi9xt3h0jxwwtSArd" : {
      "country" : "Poland",
      "distance" : "100",
      "lat" : 51.0930709,
      "lng" : 16.9744434,
      "name" : "Grzesiek",
      "postalCode" : "53-239",
      "town" : "Wrocław"
    },
    "-KBD9VkNEjP7riFCsZ11" : {
      "country" : "US",
      "distance" : "50",
      "lat" : 30.25208559999999,
      "lng" : -97.9483898,
      "name" : "Andrew Cockerham",
      "postalCode" : "78736",
      "town" : "Austin"
    }
  }
}
