{
  "items" : {
    "-KBDdbP9hbitQJUFU_oY" : {
      "country" : "Canada",
      "distance" : "100",
      "lat" : 43.6453796,
      "lng" : -79.3936722,
      "name" : "marko",
      "postalCode" : "m5v3g8",
      "town" : "Toronto"
    },
    "-KBDdbPEZmAUzoTqotOc" : {
      "country" : "United States",
      "distance" : "100",
      "lat" : 37.8824054,
      "lng" : -122.026918,
      "name" : "Eduardo Gonzalez",
      "postalCode" : "94596",
      "town" : "Walnut Creek"
    },
    "-KBDdbPG29GQkH__cc_q" : {
      "country" : "United States",
      "distance" : "50",
      "lat" : 33.5974299,
      "lng" : -117.8370041,
      "name" : "Jon",
      "postalCode" : "92657",
      "town" : ""
    },
    "-KBDdbPHnruLkoW1x1F5" : {
      "country" : "United States",
      "distance" : "40",
      "lat" : 47.837259,
      "lng" : -122.2155192,
      "name" : "Martin Wilter",
      "postalCode" : "98012",
      "town" : "Bothell"
    },
    "-KBDdbPIjGUSbij3cZcR" : {
      "country" : "United States",
      "distance" : "50",
      "lat" : 39.7042328,
      "lng" : -84.0740462,
      "name" : "Corey",
      "postalCode" : "45430",
      "town" : "Dayton"
    },
    "-KBDdbPJ2qQFprX2oExg" : {
      "country" : "United States",
      "distance" : "50",
      "lat" : 35.6264403,
      "lng" : -97.5138947,
      "name" : "Dallas",
      "postalCode" : "73013",
      "town" : "Edmond"
    },
    "-KBDdbPK-hAp80cVZLhZ" : {
      "country" : "United States",
      "distance" : "50",
      "lat" : 37.5677679,
      "lng" : -122.0522177,
      "name" : "uv",
      "postalCode" : "94555",
      "town" : "Fremont"
    },
    "-KBDdbPLQdv0h9e8hGdk" : {
      "country" : "United States",
      "distance" : "25",
      "lat" : 47.7398257,
      "lng" : -122.3680128,
      "name" : "Andy",
      "postalCode" : "98177",
      "town" : "Seattle"
    },
    "-KBDdbPMnQF1pPhbl1qb" : {
      "country" : "United States",
      "distance" : "100",
      "lat" : 30.372807,
      "lng" : -91.18330429999999,
      "name" : "Ravi",
      "postalCode" : "70820",
      "town" : "Baton Rouge"
    },
    "-KBDdbPNYMZ4vOL9Q1Qy" : {
      "country" : "United States",
      "distance" : "40",
      "lat" : 33.473501,
      "lng" : -84.5012435,
      "name" : "Eric Martz",
      "postalCode" : "30214",
      "town" : "Fayetteville"
    },
    "-KBDdbPOYnfMVXMIkmVS" : {
      "country" : "Austria",
      "distance" : "20040",
      "lat" : 46.7231037,
      "lng" : 15.7653147,
      "name" : "martin-martin",
      "postalCode" : "8480",
      "town" : ""
    },
    "-KBDdbPPotr-W67oBKMk" : {
      "country" : "United States",
      "distance" : "30",
      "lat" : 33.723039,
      "lng" : -84.3436881,
      "name" : "Kyle",
      "postalCode" : "30316",
      "town" : "Atlanta"
    },
    "-KBDdbPQnBYCsCLw0wQj" : {
      "country" : "United States",
      "distance" : "40",
      "lat" : 45.1056514,
      "lng" : -93.4892746,
      "name" : "Jim",
      "postalCode" : "55311",
      "town" : "Osseo"
    },
    "-KBDdbPROd7Uhmq9V7gw" : {
      "country" : "United States",
      "distance" : "40",
      "lat" : 37.3003688,
      "lng" : -122.0492891,
      "name" : "Kacyn",
      "postalCode" : "95014",
      "town" : "Cupertino"
    },
    "-KBDdbPSNP6Hz2p1W-mF" : {
      "country" : "India",
      "distance" : "10",
      "lat" : 28.4554726,
      "lng" : 77.0219019,
      "name" : "Shouvik",
      "postalCode" : "122001",
      "town" : "Gurgaon"
    },
    "-KBDdbPUOYgJFT0AHxef" : {
      "country" : "Australia",
      "distance" : "500",
      "lat" : -33.0218853,
      "lng" : 148.2804541,
      "name" : "Mat",
      "postalCode" : "2870",
      "town" : ""
    },
    "-KBDdbPWdRup-3IoFhhL" : {
      "country" : "United States",
      "distance" : "30",
      "lat" : 37.3895297,
      "lng" : -122.0183914,
      "name" : "Randeep",
      "postalCode" : "94085",
      "town" : "Sunnyvale"
    },
    "-KBDdbP_TZukYkXQB1PZ" : {
      "country" : "United States",
      "distance" : "30",
      "lat" : 39.7775841,
      "lng" : -105.1083542,
      "name" : "Natasha Japp",
      "postalCode" : "80033",
      "town" : "Wheat Ridge"
    },
    "-KBDdbPbgyAsdPVnU7RX" : {
      "country" : "United States",
      "distance" : "20",
      "lat" : 39.908085,
      "lng" : -75.1953934,
      "name" : "Mark",
      "postalCode" : "19145",
      "town" : "Filadelfia"
    },
    "-KBDdbPdJafBzg4hPP_O" : {
      "country" : "United States",
      "distance" : "10",
      "lat" : 37.2638319,
      "lng" : -122.023004,
      "name" : "MsLaura",
      "postalCode" : "95070",
      "town" : "Saratoga"
    },
    "-KBDdbPeD9-uZCPZbAiH" : {
      "country" : "India",
      "distance" : "20",
      "lat" : 28.6078909,
      "lng" : 77.3054884,
      "name" : "Harshit",
      "postalCode" : "110091",
      "town" : "Nueva Delhi"
    },
    "-KBDdbPfZtpflE0rRHhd" : {
      "country" : "Russia",
      "distance" : "50",
      "lat" : 55.4616172,
      "lng" : 37.2948354,
      "name" : "A",
      "postalCode" : "142190",
      "town" : ""
    },
    "-KBDdbPh1r3b2y_FxaIA" : {
      "country" : "United States",
      "distance" : "60",
      "lat" : 38.4244019,
      "lng" : -121.3312882,
      "name" : "Rasheed",
      "postalCode" : "95624",
      "town" : "Elk Grove"
    },
    "-KBDdbPiirM58To6-j-t" : {
      "country" : "Russia",
      "distance" : "200",
      "lat" : 55.6932097,
      "lng" : 37.5495829,
      "name" : "Mark",
      "postalCode" : "119296",
      "town" : "Moscú"
    },
    "-KBDdbPji-uM6tC-M2up" : {
      "country" : "United States",
      "distance" : "16",
      "lat" : 37.3785351,
      "lng" : -122.086585,
      "name" : "Nija",
      "postalCode" : "94040 ",
      "town" : "Mountain View"
    },
    "-KBDdbPji-uM6tC-M2uq" : {
      "country" : "United States",
      "distance" : "20",
      "lat" : 30.3658304,
      "lng" : -81.49379929999999,
      "name" : "Dino",
      "postalCode" : "32225",
      "town" : "Jacksonville"
    },
    "-KBDdbPkox5J_8YO2DCy" : {
      "country" : "United States",
      "distance" : "100",
      "lat" : 42.9511374,
      "lng" : -82.5402275,
      "name" : "Kyle",
      "postalCode" : "48074",
      "town" : "Smiths Creek"
    },
    "-KBDdbPlF92StIt_L5w1" : {
      "country" : "Singapore",
      "distance" : "10",
      "lat" : 1.293822,
      "lng" : 103.803042,
      "name" : "Joshua",
      "postalCode" : "140153",
      "town" : "Singapore"
    },
    "-KBDdbPnfQ829_Cr4He_" : {
      "country" : "Austria",
      "distance" : "100",
      "lat" : 48.1564641,
      "lng" : 16.3910684,
      "name" : "Milo",
      "postalCode" : "1100",
      "town" : "Vienna"
    },
    "-KBDdbPnfQ829_Cr4Hea" : {
      "country" : "Italy",
      "distance" : "100",
      "lat" : 45.6807229,
      "lng" : 11.6449395,
      "name" : "Angelo",
      "postalCode" : "36060",
      "town" : ""
    },
    "-KBDdbPoGkRGWCCOGDny" : {
      "country" : "France",
      "distance" : "200",
      "lat" : 50.670738,
      "lng" : 2.8429201,
      "name" : "Cyril",
      "postalCode" : "59193",
      "town" : "Erquinghem-Lys"
    },
    "-KBDdbPpKX4hf7mGtcjO" : {
      "country" : "Ukraine",
      "distance" : "500",
      "lat" : 49.233083,
      "lng" : 28.468217,
      "name" : "p",
      "postalCode" : "21001",
      "town" : "Vinnytsia"
    },
    "-KBDdbPqWH5StfweYeZD" : {
      "country" : "United States",
      "distance" : "600",
      "lat" : 28.8360637,
      "lng" : -82.269193,
      "name" : "Katerina ",
      "postalCode" : "34450/1712",
      "town" : "Inverness"
    },
    "-KBDdbPrMliCmQ9u_dZj" : {
      "country" : "United States",
      "distance" : "25",
      "lat" : 37.9538109,
      "lng" : -121.9643745,
      "name" : "Anna",
      "postalCode" : "94521",
      "town" : "Concord"
    },
    "-KBDdbPsbANPKJQlOryG" : {
      "country" : "United States",
      "distance" : "80",
      "lat" : 43.14831710000001,
      "lng" : -88.7301525,
      "name" : "Charlene",
      "postalCode" : "53094",
      "town" : "Watertown"
    },
    "-KBDdbPtgrkaqidrNj1W" : {
      "country" : "Poland",
      "distance" : "100",
      "lat" : 51.0930709,
      "lng" : 16.9744434,
      "name" : "Grzesiek",
      "postalCode" : "53-239",
      "town" : "Wrocław"
    },
    "-KBDdbPuNZtsc4oWGk3A" : {
      "country" : "United States",
      "distance" : "50",
      "lat" : 42.8104135,
      "lng" : -70.8892886,
      "name" : "Kerry",
      "postalCode" : "01950",
      "town" : "Newburyport"
    },
    "-KBDdbPvQtmIHcmlA2Rv" : {
      "country" : "United States",
      "distance" : "10",
      "lat" : 39.9396284,
      "lng" : -75.18663959999999,
      "name" : "Phil",
      "postalCode" : "19146",
      "town" : "Filadelfia"
    },
    "-KBDdbPwEiAc4ia05Hyn" : {
      "country" : "United Kingdom",
      "distance" : "1000",
      "lat" : 51.2404551,
      "lng" : -0.9452066,
      "name" : "Benjamin Fraser",
      "postalCode" : "RG29 1QT",
      "town" : "Odiham"
    },
    "-KBDdbPxK6Zy2MFVYmyF" : {
      "country" : "United States",
      "distance" : "5",
      "lat" : 40.5944059,
      "lng" : -74.0711359,
      "name" : "Alyona",
      "postalCode" : "10305",
      "town" : ""
    },
    "-KBDdbPxK6Zy2MFVYmyG" : {
      "country" : "United States",
      "distance" : "200",
      "lat" : 25.7616792,
      "lng" : -80.34915989999999,
      "name" : "Syed",
      "postalCode" : "33174",
      "town" : "Miami"
    },
    "-KBDdbPyIGBpV-XeCsdE" : {
      "country" : "United States",
      "distance" : "50",
      "lat" : 33.6496252,
      "lng" : -117.9190418,
      "name" : "Ben",
      "postalCode" : "92627",
      "town" : "Costa Mesa"
    },
    "-KBDdbPzmfGnbf82eHZP" : {
      "country" : "India",
      "distance" : "1000",
      "lat" : 13.0487446,
      "lng" : 77.5923297,
      "name" : "Vishnu Pillai",
      "postalCode" : "560024",
      "town" : "Bangalore"
    },
    "-KBDdbQ0IeFb7PyO1fWp" : {
      "country" : "Germany",
      "distance" : "50",
      "lat" : 53.55524940000001,
      "lng" : 9.9807553,
      "name" : "Christian",
      "postalCode" : "20355",
      "town" : "Hamburgo"
    },
    "-KBDdbQ2_6B4SdL_arHp" : {
      "country" : "United States",
      "distance" : "500",
      "lat" : 32.7361498,
      "lng" : -97.802737,
      "name" : "Deanna",
      "postalCode" : "76086",
      "town" : "Weatherford"
    },
    "-KBDdbQ3lAZMwtfN9QAw" : {
      "country" : "United States",
      "distance" : "30",
      "lat" : 37.371859,
      "lng" : -122.0212337,
      "name" : "Bhargavi",
      "postalCode" : "94086",
      "town" : "Sunnyvale"
    },
    "-KBDdbQ4SniFzvxHsD2R" : {
      "country" : "United States",
      "distance" : "200",
      "lat" : 36.3809052,
      "lng" : -87.6482474,
      "name" : "Zoltan",
      "postalCode" : "37050",
      "town" : "Cumberland City"
    },
    "-KBDdbQ4SniFzvxHsD2S" : {
      "country" : "India",
      "distance" : "5000",
      "lat" : 13.2974227,
      "lng" : 77.1830243,
      "name" : "Mahakeerthi",
      "postalCode" : "572104",
      "town" : ""
    },
    "-KBDdbQ5dctzvSYTvN9o" : {
      "country" : "United States",
      "distance" : "100",
      "lat" : 35.8150476,
      "lng" : -78.57744079999999,
      "name" : "RaleighNC_Android",
      "postalCode" : "27604",
      "town" : "Raleigh"
    },
    "-KBDdbQ6b3llGjKGDGge" : {
      "country" : "United States",
      "distance" : "50",
      "lat" : 37.68000019999999,
      "lng" : -122.4863492,
      "name" : "Brody Chen",
      "postalCode" : "94015",
      "town" : "Daly City"
    },
    "-KBDdbQ71tO6e1pdyLgy" : {
      "country" : "Australia",
      "distance" : "50",
      "lat" : -27.4522751,
      "lng" : 153.0353622,
      "name" : "Alex Kamrath",
      "postalCode" : "4006",
      "town" : "Brisbane"
    },
    "-KBDdbQ8neAJl9PNet9F" : {
      "country" : "United States",
      "distance" : "100",
      "lat" : 39.42052959999999,
      "lng" : -76.79135579999999,
      "name" : "Ebow Yawson",
      "postalCode" : "21117",
      "town" : "Owings Mills"
    },
    "-KBDdbQ9n-895Nd548mM" : {
      "country" : "Germany",
      "distance" : "50",
      "lat" : 51.248009,
      "lng" : 6.7790167,
      "name" : "James",
      "postalCode" : "40476",
      "town" : "Düsseldorf"
    },
    "-KBDdbQ9n-895Nd548mN" : {
      "country" : "Australia",
      "distance" : "20",
      "lat" : -33.8479652,
      "lng" : 150.6517354,
      "name" : "Gareth",
      "postalCode" : "2745",
      "town" : "Sídney"
    },
    "-KBDdbQAQMu0yTvWA2S7" : {
      "country" : "United States",
      "distance" : "500",
      "lat" : 41.748902,
      "lng" : -88.0363086,
      "name" : "kevin",
      "postalCode" : "60517",
      "town" : "Woodridge"
    },
    "-KBDdbQC1a1fPw2E0O30" : {
      "country" : "Uruguay",
      "distance" : "2500",
      "lat" : -34.9100207,
      "lng" : -56.1504985,
      "name" : "Maximiliano Pombo",
      "postalCode" : "11300",
      "town" : "Montevideo"
    },
    "-KBDdbQC1a1fPw2E0O31" : {
      "country" : "Germany",
      "distance" : "200",
      "lat" : 49.2367587,
      "lng" : 12.5554758,
      "name" : "andreas",
      "postalCode" : "93483",
      "town" : "Pösing"
    },
    "-KBDdbQDh82-eiZH4BSh" : {
      "country" : "United States",
      "distance" : "5000",
      "lat" : 61.14876899999999,
      "lng" : -149.8010811,
      "name" : "James Ives",
      "postalCode" : "99507",
      "town" : "Anchorage"
    },
    "-KBDdbQFyNN00Q1YX1ub" : {
      "country" : "United States",
      "distance" : "25",
      "lat" : 37.8020405,
      "lng" : -122.4382307,
      "name" : "Acronym",
      "postalCode" : "94123",
      "town" : "San Francisco"
    },
    "-KBDdbQGQolb4lfxzXnK" : {
      "country" : "United States",
      "distance" : "50",
      "lat" : 33.9372725,
      "lng" : -118.1298234,
      "name" : "ivan",
      "postalCode" : "90241",
      "town" : "Downey"
    },
    "-KBDdbQIy_UPaly5mD4e" : {
      "country" : "United States",
      "distance" : "1240000000",
      "lat" : 26.2474478,
      "lng" : -80.09260139999999,
      "name" : "slavo",
      "postalCode" : "33062",
      "town" : "Pompano Beach"
    },
    "-KBDdbQKTXqnPFU3Gs7_" : {
      "country" : "Canada",
      "distance" : "36.4 ",
      "lat" : 43.4816859,
      "lng" : -79.7079096,
      "name" : "Luis Navarrete",
      "postalCode" : "L6H 4W2",
      "town" : "Oakville"
    },
    "-KBDdbQKTXqnPFU3Gs7a" : {
      "country" : "United States",
      "distance" : "1000",
      "lat" : 37.5677679,
      "lng" : -122.0522177,
      "name" : "umang",
      "postalCode" : "94555",
      "town" : "Fremont"
    },
    "-KBDdbQLjmFvJekpygEN" : {
      "country" : "Australia",
      "distance" : "20",
      "lat" : -33.8657305,
      "lng" : 151.20733,
      "name" : "Jezz",
      "postalCode" : "2000",
      "town" : "Sídney"
    },
    "-KBDdbQMHoPeL8e1e0wD" : {
      "country" : "United States",
      "distance" : "2",
      "lat" : 34.043925,
      "lng" : -118.2424291,
      "name" : "Gabriele",
      "postalCode" : "90013",
      "town" : "Los Ángeles"
    },
    "-KBDdbQNdDpwalEmtSc-" : {
      "country" : "United States",
      "distance" : "40",
      "lat" : 42.2129167,
      "lng" : -83.7305392,
      "name" : "John Zukowski",
      "postalCode" : "48108",
      "town" : "Ann Arbor"
    },
    "-KBDdbQPDSdZRKV2Jf2X" : {
      "country" : "Australia",
      "distance" : "1500",
      "lat" : -27.4660994,
      "lng" : 153.023588,
      "name" : "Alex",
      "postalCode" : "4000",
      "town" : "Brisbane"
    },
    "-KBDdbQQ5NyoEWinkwHd" : {
      "country" : "United States",
      "distance" : "40",
      "lat" : 33.9734553,
      "lng" : -117.3263893,
      "name" : "Enrique Cahua",
      "postalCode" : "92507",
      "town" : "Riverside"
    },
    "-KBDdbQRztJGnzsFd4H3" : {
      "country" : "United States",
      "distance" : "100",
      "lat" : 32.8601513,
      "lng" : -97.3641377,
      "name" : "Jamie",
      "postalCode" : "76179",
      "town" : "Fort Worth"
    },
    "-KBDdbQSSBK-uuPi81xp" : {
      "country" : "Poland",
      "distance" : "100",
      "lat" : 51.0930709,
      "lng" : 16.9744434,
      "name" : "Grzesiek",
      "postalCode" : "53-239",
      "town" : "Wrocław"
    },
    "-KBDdbQSSBK-uuPi81xq" : {
      "country" : "United States",
      "distance" : "50",
      "lat" : 30.25208559999999,
      "lng" : -97.9483898,
      "name" : "Andrew Cockerham",
      "postalCode" : "78736",
      "town" : "Austin"
    },
    "-KBDdcl7E7QqdQx0TK2c" : {
      "country" : "United States",
      "distance" : "50",
      "lat" : 43.0651073,
      "lng" : -83.624201,
      "name" : "Jacob",
      "postalCode" : "48506",
      "town" : "Flint"
    },
    "-KBDdclA45WoBkUwnR-R" : {
      "country" : "United States",
      "distance" : "50",
      "lat" : 43.0651073,
      "lng" : -83.624201,
      "name" : "Jacob",
      "postalCode" : "48506",
      "town" : "Flint"
    },
    "-KBDdcnzf2pJAq2rzzxm" : {
      "country" : "United States",
      "distance" : "50",
      "lat" : 34.0796167,
      "lng" : -118.2585096,
      "name" : "Jacob",
      "postalCode" : "90026",
      "town" : "Los Ángeles"
    },
    "-KBDdcoHTRmuoqq4u1nQ" : {
      "country" : "United Kingdom",
      "distance" : "100",
      "lat" : 51.8244561,
      "lng" : -0.8179964,
      "name" : "Bhekinkosi G Sigidi",
      "postalCode" : "HP19 9QP",
      "town" : "Aylesbury"
    },
    "-KBDdcs1CC3mlBb0sb3O" : {
      "country" : "United States",
      "distance" : "50",
      "lat" : 40.8267932,
      "lng" : -74.3176876,
      "name" : "Simon",
      "postalCode" : "07068",
      "town" : "Roseland"
    },
    "-KBDdcs4MYjhkZ8SbMZY" : {
      "country" : "United States",
      "distance" : "50",
      "lat" : 37.09024,
      "lng" : -95.712891,
      "name" : "Simon",
      "postalCode" : "07068",
      "town" : ""
    },
    "-KBDdcz3NjBNx8cNHoet" : {
      "country" : "United States",
      "distance" : "50",
      "lat" : 37.7202042,
      "lng" : -122.4099154,
      "name" : "Philip",
      "postalCode" : "94134",
      "town" : "San Francisco"
    },
    "-KBDdczR0qiTOcZMnUDZ" : {
      "country" : "United States",
      "distance" : "600",
      "lat" : 41.2225817,
      "lng" : 29.0236315,
      "name" : "Katerina",
      "postalCode" : "34450",
      "town" : ""
    },
    "-KBDdczV0c0pxHPvLeTY" : {
      "country" : "United States",
      "distance" : "50",
      "lat" : 38.70360050000001,
      "lng" : -90.6488505,
      "name" : "Greg",
      "postalCode" : "63304",
      "town" : "St. Charles"
    },
    "-KBDdczWpRoakRzfhn0N" : {
      "country" : "Germany",
      "distance" : "100",
      "lat" : 48.1127929,
      "lng" : 11.5681872,
      "name" : "Wilfried Hoge",
      "postalCode" : "81543",
      "town" : "Múnich"
    },
    "-KBDdczWpRoakRzfhn0O" : {
      "country" : "United States",
      "distance" : "1500",
      "lat" : 35.8520207,
      "lng" : -86.4594276,
      "name" : "Justin",
      "postalCode" : "37128",
      "town" : "Murfreesboro"
    },
    "-KBDdczXmqLQIdrXj1-n" : {
      "country" : "Denmark",
      "distance" : "10",
      "lat" : 55.6928897,
      "lng" : 12.547805,
      "name" : "Niels Lindberg-Poulsen",
      "postalCode" : "2200",
      "town" : "København"
    },
    "-KBDdczYnivXdiMgnOK_" : {
      "country" : "United States",
      "distance" : "100",
      "lat" : 42.3043674,
      "lng" : -73.2460582,
      "name" : "Abigail",
      "postalCode" : "01238",
      "town" : "Lee"
    },
    "-KBDdd-R9__OJkDLjIAC" : {
      "country" : "United States",
      "distance" : "160",
      "lat" : 64.87739859999999,
      "lng" : -148.3542567,
      "name" : "csgray",
      "postalCode" : "99709",
      "town" : "Fairbanks"
    },
    "-KBDdd0QxWpaN8U3-PQ9" : {
      "country" : "United States",
      "distance" : "96",
      "lat" : 34.1286356,
      "lng" : -117.2089374,
      "name" : "Jason",
      "postalCode" : "92346",
      "town" : "Highland"
    }
  }
}
