[
   {
      "name":"Andreas",
      "country":"España",
      "town":"Madrid",
      "postalCode":"28004",
      "lat":40.4244585,
      "lng":-3.6990948,
      "key":"-KAvQZkv78nZ25G7zyH0"
   },
   {
      "name":"marko",
      "country":"Canadá",
      "town":"Toronto",
      "postalCode":"m5v3g8",
      "lat":43.6453796,
      "lng":-79.3936722,
      "key":"-KAwXjLQLIx5asez-Usa"
   },
   {
      "name":"Eduardo Gonzalez",
      "country":"Estados Unidos",
      "town":"Walnut Creek",
      "postalCode":"94596",
      "lat":37.8824054,
      "lng":-122.026918,
      "key":"-KAwXv_d4CXHQrz7xS_0"
   },
   {
      "name":"Jon",
      "country":"Estados Unidos",
      "town":"",
      "postalCode":"92657",
      "lat":33.5974299,
      "lng":-117.8370041,
      "key":"-KAwY2fSKwLmaQB0Dgoq"
   },
   {
      "name":"Martin Wilter",
      "country":"Estados Unidos",
      "town":"Bothell",
      "postalCode":"98012",
      "lat":47.837259,
      "lng":-122.2155192,
      "key":"-KAwZGjhRo_ywWu9mKZs"
   },
   {
      "name":"Corey",
      "country":"Estados Unidos",
      "town":"Dayton",
      "postalCode":"45430",
      "lat":39.7042328,
      "lng":-84.0740462,
      "key":"-KAwe4Jaqxai3h_b4Hzw"
   },
   {
      "name":"Dallas",
      "country":"Estados Unidos",
      "town":"Edmond",
      "postalCode":"73013",
      "lat":35.6264403,
      "lng":-97.5138947,
      "key":"-KAwfmcXsmA6ToloitAj"
   },
   {
      "name":"uv",
      "country":"Estados Unidos",
      "town":"Fremont",
      "postalCode":"94555",
      "lat":37.5677679,
      "lng":-122.0522177,
      "key":"-KAwiPYMxaW7eAQEIIdC"
   },
   {
      "name":"Andy",
      "country":"Estados Unidos",
      "town":"Seattle",
      "postalCode":"98177",
      "lat":47.7398257,
      "lng":-122.3680128,
      "key":"-KAwkC6Hpic1eyTg28T3"
   },
   {
      "name":"Ravi",
      "country":"Estados Unidos",
      "town":"Baton Rouge",
      "postalCode":"70820",
      "lat":30.372807,
      "lng":-91.18330429999999,
      "key":"-KAwkrFHK4PzJl7XZzpT"
   },
   {
      "name":"Eric Martz",
      "country":"Estados Unidos",
      "town":"Fayetteville",
      "postalCode":"30214",
      "lat":33.473501,
      "lng":-84.5012435,
      "key":"-KAwlT0dmVdGt2GodRRJ"
   },
   {
      "name":"martin-martin",
      "country":"Austria",
      "town":"",
      "postalCode":"8480",
      "lat":46.7231037,
      "lng":15.7653147,
      "key":"-KAwp03FcRPuApQsR9_O"
   },
   {
      "name":"Kyle",
      "country":"Estados Unidos",
      "town":"Atlanta",
      "postalCode":"30316",
      "lat":33.723039,
      "lng":-84.3436881,
      "key":"-KAwpDw4c_VU2Np86Btb"
   },
   {
      "name":"Jim",
      "country":"Estados Unidos",
      "town":"Osseo",
      "postalCode":"55311",
      "lat":45.1056514,
      "lng":-93.4892746,
      "key":"-KAwrU-EHaU8CzVp1Z2H"
   },
   {
      "name":"Kacyn",
      "country":"Estados Unidos",
      "town":"Cupertino",
      "postalCode":"95014",
      "lat":37.3003688,
      "lng":-122.0492891,
      "key":"-KAwto2cFhPHJWcZKbSY"
   },
   {
      "name":"Shouvik",
      "country":"India",
      "town":"Gurgaon",
      "postalCode":"122001",
      "lat":28.4554726,
      "lng":77.0219019,
      "key":"-KAwww6OFXAYSS2SXIHg"
   },
   {
      "name":"Mat",
      "country":"Australia",
      "town":"",
      "postalCode":"2870",
      "lat":-33.0218853,
      "lng":148.2804541,
      "key":"-KAwyosV7zVEtPZ6dOQ_"
   },
   {
      "name":"Randeep",
      "country":"Estados Unidos",
      "town":"Sunnyvale",
      "postalCode":"94085",
      "lat":37.3895297,
      "lng":-122.0183914,
      "key":"-KAwz1mEfyrHGRFSSKKq"
   },
   {
      "name":"Natasha Japp",
      "country":"Estados Unidos",
      "town":"Wheat Ridge",
      "postalCode":"80033",
      "lat":39.7775841,
      "lng":-105.1083542,
      "key":"-KAx3Ps87BYocmO3juKB"
   },
   {
      "name":"Mark",
      "country":"Estados Unidos",
      "town":"Filadelfia",
      "postalCode":"19145",
      "lat":39.908085,
      "lng":-75.1953934,
      "key":"-KAx9wu5pBYlsqMSAUC_"
   },
   {
      "name":"MsLaura",
      "country":"Estados Unidos",
      "town":"Saratoga",
      "postalCode":"95070",
      "lat":37.2638319,
      "lng":-122.023004,
      "key":"-KAxFliLkVFZJ6aKyDoB"
   },
   {
      "name":"Harshit",
      "country":"India",
      "town":"Nueva Delhi",
      "postalCode":"110091",
      "lat":28.6078909,
      "lng":77.3054884,
      "key":"-KAxQbSC_1-HB-8eBbxM"
   },
   {
      "name":"A",
      "country":"Rusia",
      "town":"",
      "postalCode":"142190",
      "lat":55.4616172,
      "lng":37.2948354,
      "key":"-KAxi1FmdkAAdWYUl-cq"
   },
   {
      "name":"Rasheed",
      "country":"Estados Unidos",
      "town":"Elk Grove",
      "postalCode":"95624",
      "lat":38.4244019,
      "lng":-121.3312882,
      "key":"-KAxiBps5dd0EsnFjj6F"
   },
   {
      "name":"Mark",
      "country":"Rusia",
      "town":"Moscú",
      "postalCode":"119296",
      "lat":55.6932097,
      "lng":37.5495829,
      "key":"-KAy0cAbe7ZI3PKFiuDG"
   },
   {
      "name":"Nija",
      "country":"Estados Unidos",
      "town":"Mountain View",
      "postalCode":"94040 ",
      "lat":37.3785351,
      "lng":-122.086585,
      "key":"-KAyO93e98ibAX78I16r"
   },
   {
      "name":"Dino",
      "country":"Estados Unidos",
      "town":"Jacksonville",
      "postalCode":"32225",
      "lat":30.3658304,
      "lng":-81.49379929999999,
      "key":"-KAyPmcQiNmA8VeaPmcG"
   },
   {
      "name":"Kyle",
      "country":"Estados Unidos",
      "town":"Smiths Creek",
      "postalCode":"48074",
      "lat":42.9511374,
      "lng":-82.5402275,
      "key":"-KAySo1Z2MR9uOZhKOau"
   },
   {
      "name":"Joshua",
      "country":"Singapur",
      "town":"Singapore",
      "postalCode":"140153",
      "lat":1.293822,
      "lng":103.803042,
      "key":"-KAyTj8zASLdY265nDa3"
   },
   {
      "name":"Milo",
      "country":"Austria",
      "town":"Vienna",
      "postalCode":"1100",
      "lat":48.1564641,
      "lng":16.3910684,
      "key":"-KAyX6dDt-JF_lNSoJQ5"
   },
   {
      "name":"Angelo",
      "country":"Italia",
      "town":"",
      "postalCode":"36060",
      "lat":45.6807229,
      "lng":11.6449395,
      "key":"-KAyZ6mhr42dCj1q5BeA"
   },
   {
      "name":"Cyril",
      "country":"Francia",
      "town":"Erquinghem-Lys",
      "postalCode":"59193",
      "lat":50.670738,
      "lng":2.8429201,
      "key":"-KAydB_RpVv19B7dxoEC"
   },
   {
      "name":"p",
      "country":"Ucrania",
      "town":"Vinnytsia",
      "postalCode":"21001",
      "lat":49.233083,
      "lng":28.468217,
      "key":"-KAyf9eF_QL0otQPPR8n"
   },
   {
      "name":"Katerina ",
      "country":"Estados Unidos",
      "town":"Inverness",
      "postalCode":"34450/1712",
      "lat":28.8360637,
      "lng":-82.269193,
      "key":"-KAyfUhWAtFGFAGjzUOC"
   },
   {
      "name":"Anna",
      "country":"Estados Unidos",
      "town":"Concord",
      "postalCode":"94521",
      "lat":37.9538109,
      "lng":-121.9643745,
      "key":"-KAyfVOvK-3NmXaE5lo-"
   },
   {
      "name":"Charlene",
      "country":"Estados Unidos",
      "town":"Watertown",
      "postalCode":"53094",
      "lat":43.14831710000001,
      "lng":-88.7301525,
      "key":"-KAyg1VwbgT3__NJ8Y7m"
   },
   {
      "name":"Grzesiek",
      "country":"Polonia",
      "town":"Wrocław",
      "postalCode":"53-239",
      "lat":51.0930709,
      "lng":16.9744434,
      "key":"-KAyhaAk9FRGbMBi5j1x"
   },
   {
      "name":"Kerry",
      "country":"Estados Unidos",
      "town":"Newburyport",
      "postalCode":"01950",
      "lat":42.8104135,
      "lng":-70.8892886,
      "key":"-KAyiFbPCopILTXbuUya"
   },
   {
      "name":"Phil",
      "country":"Estados Unidos",
      "town":"Filadelfia",
      "postalCode":"19146",
      "lat":39.9396284,
      "lng":-75.18663959999999,
      "key":"-KAyu3cpXkyRKThBucqq"
   },
   {
      "name":"Benjamin Fraser",
      "country":"Reino Unido",
      "town":"Odiham",
      "postalCode":"RG29 1QT",
      "lat":51.2404551,
      "lng":-0.9452066,
      "key":"-KAyvekFF9QgQwW4IrtT"
   },
   {
      "name":"Alyona",
      "country":"Estados Unidos",
      "town":"",
      "postalCode":"10305",
      "lat":40.5944059,
      "lng":-74.0711359,
      "key":"-KAyxF2r2K34uMHuL7N4"
   },
   {
      "name":"Syed",
      "country":"Estados Unidos",
      "town":"Miami",
      "postalCode":"33174",
      "lat":25.7616792,
      "lng":-80.34915989999999,
      "key":"-KAyxa_49LeMI8vXnHHZ"
   },
   {
      "name":"Ben",
      "country":"Estados Unidos",
      "town":"Costa Mesa",
      "postalCode":"92627",
      "lat":33.6496252,
      "lng":-117.9190418,
      "key":"-KAzKQBqdU1TN8FkEfBx"
   },
   {
      "name":"Vishnu Pillai",
      "country":"India",
      "town":"Bangalore",
      "postalCode":"560024",
      "lat":13.0487446,
      "lng":77.5923297,
      "key":"-KAzLp4E21ikn_7tpxg6"
   },
   {
      "name":"Christian",
      "country":"Alemania",
      "town":"Hamburgo",
      "postalCode":"20355",
      "lat":53.55524940000001,
      "lng":9.9807553,
      "key":"-KAzQBLtiMq7yMBfIYop"
   },
   {
      "name":"Deanna",
      "country":"Estados Unidos",
      "town":"Weatherford",
      "postalCode":"76086",
      "lat":32.7361498,
      "lng":-97.802737,
      "key":"-KAzc3MAsgdTgwJT6oK_"
   },
   {
      "name":"Bhargavi",
      "country":"Estados Unidos",
      "town":"Sunnyvale",
      "postalCode":"94086",
      "lat":37.371859,
      "lng":-122.0212337,
      "key":"-KAzk6JuZqhoysfwy_9w"
   },
   {
      "name":"Zoltan",
      "country":"Estados Unidos",
      "town":"Cumberland City",
      "postalCode":"37050",
      "lat":36.3809052,
      "lng":-87.6482474,
      "key":"-KB-7YwuhXDC9NcplRub"
   },
   {
      "name":"Mahakeerthi",
      "country":"India",
      "town":"",
      "postalCode":"572104",
      "lat":13.2974227,
      "lng":77.1830243,
      "key":"-KB-CnpTBYv_Ns9-vwrA"
   },
   {
      "name":"RaleighNC_Android",
      "country":"Estados Unidos",
      "town":"Raleigh",
      "postalCode":"27604",
      "lat":35.8150476,
      "lng":-78.57744079999999,
      "key":"-KB-D8uJjYWiOqNUiLg2"
   },
   {
      "name":"Brody Chen",
      "country":"Estados Unidos",
      "town":"Daly City",
      "postalCode":"94015",
      "lat":37.68000019999999,
      "lng":-122.4863492,
      "key":"-KB-GA3HFFBlyep2XyQD"
   },
   {
      "name":"Alex Kamrath",
      "country":"Australia",
      "town":"Brisbane",
      "postalCode":"4006",
      "lat":-27.4522751,
      "lng":153.0353622,
      "key":"-KB-PrkFd7orcfhIX8Je"
   },
   {
      "name":"Ebow Yawson",
      "country":"Estados Unidos",
      "town":"Owings Mills",
      "postalCode":"21117",
      "lat":39.42052959999999,
      "lng":-76.79135579999999,
      "key":"-KB-ZOmOVlEzWE8YpdXx"
   },
   {
      "name":"James",
      "country":"Alemania",
      "town":"Düsseldorf",
      "postalCode":"40476",
      "lat":51.248009,
      "lng":6.7790167,
      "key":"-KB-t_V4wzEjN3MbHF7M"
   },
   {
      "name":"Gareth",
      "country":"Australia",
      "town":"Sídney",
      "postalCode":"2745",
      "lat":-33.8479652,
      "lng":150.6517354,
      "key":"-KB074-Fmaf9FQWklmTY"
   },
   {
      "name":"Jacob",
      "country":"Estados Unidos",
      "town":"Flint",
      "postalCode":"48506",
      "lat":43.0651073,
      "lng":-83.624201,
      "key":"-KB0Un4kgfrjICuJSo7J"
   },
   {
      "name":"kevin",
      "country":"Estados Unidos",
      "town":"Woodridge",
      "postalCode":"60517",
      "lat":41.748902,
      "lng":-88.0363086,
      "key":"-KB1LWJBeOeTUR06AR-S"
   },
   {
      "name":"Mike",
      "country":"Sudáfrica",
      "town":"Sandton",
      "postalCode":"2196",
      "lat":-26.1206807,
      "lng":28.0537367,
      "key":"-KB1vDHk1mwiUgpyV7pu"
   },
   {
      "name":"Bhekinkosi G Sigidi",
      "country":"Reino Unido",
      "town":"Aylesbury",
      "postalCode":"HP19 9QP",
      "lat":51.8244561,
      "lng":-0.8179964,
      "key":"-KB2QEHIDPM3osr3hvPa"
   },
   {
      "name":"Maximiliano Pombo",
      "country":"Uruguay",
      "town":"Montevideo",
      "postalCode":"11300",
      "lat":-34.9100207,
      "lng":-56.1504985,
      "key":"-KB2yv8OgCJ6kGvVP_zr"
   },
   {
      "name":"andreas",
      "country":"Alemania",
      "town":"Pösing",
      "postalCode":"93483",
      "lat":49.2367587,
      "lng":12.5554758,
      "key":"-KB3JZv9lDILVEUa7VCx"
   },
   {
      "name":"James Ives",
      "country":"Estados Unidos",
      "town":"Anchorage",
      "postalCode":"99507",
      "lat":61.14876899999999,
      "lng":-149.8010811,
      "key":"-KB3bCIllPs5kH9mhlPz"
   },
   {
      "name":"Acronym",
      "country":"Estados Unidos",
      "town":"San Francisco",
      "postalCode":"94123",
      "lat":37.8020405,
      "lng":-122.4382307,
      "key":"-KB3ervnhriYrBqoqbJz"
   },
   {
      "name":"Niels Lindberg-Poulsen",
      "country":"Dinamarca",
      "town":"København",
      "postalCode":"2200",
      "lat":55.6928897,
      "lng":12.547805,
      "key":"-KB3i-VyyUVare067tfA"
   },
   {
      "name":"ivan",
      "country":"Estados Unidos",
      "town":"Downey",
      "postalCode":"90241",
      "lat":33.9372725,
      "lng":-118.1298234,
      "key":"-KB3poUVReqGenXe59W4"
   },
   {
      "name":"Ryan",
      "country":"Estados Unidos",
      "town":"Spokane",
      "postalCode":"0297",
      "lat":47.743604,
      "lng":-117.4095934,
      "key":"-KB3qUlujmuLwQc-gljf"
   },
   {
      "name":"slavo",
      "country":"Estados Unidos",
      "town":"Pompano Beach",
      "postalCode":"33062",
      "lat":26.2474478,
      "lng":-80.09260139999999,
      "key":"-KB3s9PgZIZ8p0swu5dP"
   },
   {
      "name":"Luis Navarrete",
      "country":"Canadá",
      "town":"Oakville",
      "postalCode":"L6H 4W2",
      "lat":43.4816859,
      "lng":-79.7079096,
      "key":"-KB3tY6mwfqifVqGL9xK"
   },
   {
      "name":"umang",
      "country":"Estados Unidos",
      "town":"Fremont",
      "postalCode":"94555",
      "lat":37.5677679,
      "lng":-122.0522177,
      "key":"-KB4MzfGhgnAyMUckF0D"
   },
   {
      "name":"Jezz",
      "country":"Australia",
      "town":"Sídney",
      "postalCode":"2000",
      "lat":-33.8657305,
      "lng":151.20733,
      "key":"-KB4cl2MWOeJ0DpyvKSw"
   },
   {
      "name":"Gabriele",
      "country":"Estados Unidos",
      "town":"Los Ángeles",
      "postalCode":"90013",
      "lat":34.043925,
      "lng":-118.2424291,
      "key":"-KB5zb7YN4sbndQXlx1A"
   },
   {
      "name":"Abigail",
      "country":"Estados Unidos",
      "town":"Lee",
      "postalCode":"01238",
      "lat":42.3043674,
      "lng":-73.2460582,
      "key":"-KB62ZAVrZ5KjGzeQ6Zx"
   },
   {
      "name":"Justin",
      "country":"Estados Unidos",
      "town":"Murfreesboro",
      "postalCode":"37128",
      "lat":35.8520207,
      "lng":-86.4594276,
      "key":"-KB6DA5nKGEgrC1WPBYJ"
   },
   {
      "name":"John Zukowski",
      "country":"Estados Unidos",
      "town":"Ann Arbor",
      "postalCode":"48108",
      "lat":42.2129167,
      "lng":-83.7305392,
      "key":"-KB6L5jVFBqiA22SjVwE"
   },
   {
      "name":"Alex",
      "country":"Australia",
      "town":"Brisbane",
      "postalCode":"4000",
      "lat":-27.4660994,
      "lng":153.023588,
      "key":"-KB6V5njj3d695t70HBo"
   },
   {
      "name":"Katerina",
      "country":"Turquía",
      "town":"",
      "postalCode":"34450",
      "lat":41.2225817,
      "lng":29.0236315,
      "key":"-KB7BK40wJo1B0w0YKvE"
   },
   {
      "name":"NaN",
      "country":"Canadá",
      "town":"Montreal",
      "postalCode":"H2S",
      "lat":45.5330112,
      "lng":-73.60469049999999,
      "key":"-KB7YyXHazINNWpPX9Dy"
   },
   {
      "name":"Jacob",
      "country":"Estados Unidos",
      "town":"Flint",
      "postalCode":"48506",
      "lat":43.0651073,
      "lng":-83.624201,
      "key":"-KB5prJY89LFBmRL9Ypt"
   }
]
