{
  "items" : {
    "-KBAAw9mW9EF1npN3aWv" : {
      "country" : "España",
      "lat" : 40.4244585,
      "lng" : -3.6990948,
      "name" : "Andreas",
      "postalCode" : "28004",
      "town" : "Madrid"
    },
    "-KBAAw9rWFzRdD3g-4po" : {
      "country" : "Canadá",
      "lat" : 43.6453796,
      "lng" : -79.3936722,
      "name" : "marko",
      "postalCode" : "m5v3g8",
      "town" : "Toronto"
    },
    "-KBAAw9sJNf4wdqRVRtp" : {
      "country" : "Estados Unidos",
      "lat" : 37.8824054,
      "lng" : -122.026918,
      "name" : "Eduardo Gonzalez",
      "postalCode" : "94596",
      "town" : "Walnut Creek"
    },
    "-KBAAw9tpxlMDURt09lO" : {
      "country" : "Estados Unidos",
      "lat" : 33.5974299,
      "lng" : -117.8370041,
      "name" : "Jon",
      "postalCode" : "92657",
      "town" : ""
    },
    "-KBAAw9wXBGwf6GfkZGg" : {
      "country" : "Estados Unidos",
      "lat" : 47.837259,
      "lng" : -122.2155192,
      "name" : "Martin Wilter",
      "postalCode" : "98012",
      "town" : "Bothell"
    },
    "-KBAAw9xMdJtydKI-III" : {
      "country" : "Estados Unidos",
      "lat" : 39.7042328,
      "lng" : -84.0740462,
      "name" : "Corey",
      "postalCode" : "45430",
      "town" : "Dayton"
    },
    "-KBAAw9y-Sn8EaSD4aRS" : {
      "country" : "Estados Unidos",
      "lat" : 35.6264403,
      "lng" : -97.5138947,
      "name" : "Dallas",
      "postalCode" : "73013",
      "town" : "Edmond"
    },
    "-KBAAw9zKinR-UU7e1EA" : {
      "country" : "Estados Unidos",
      "lat" : 37.5677679,
      "lng" : -122.0522177,
      "name" : "uv",
      "postalCode" : "94555",
      "town" : "Fremont"
    },
    "-KBAAwA-hXBvdjsb_zaY" : {
      "country" : "Estados Unidos",
      "lat" : 47.7398257,
      "lng" : -122.3680128,
      "name" : "Andy",
      "postalCode" : "98177",
      "town" : "Seattle"
    },
    "-KBAAwA02X_HaUG4ZytJ" : {
      "country" : "Estados Unidos",
      "lat" : 30.372807,
      "lng" : -91.18330429999999,
      "name" : "Ravi",
      "postalCode" : "70820",
      "town" : "Baton Rouge"
    },
    "-KBAAwA1wPHZDkQggHnD" : {
      "country" : "Estados Unidos",
      "lat" : 33.473501,
      "lng" : -84.5012435,
      "name" : "Eric Martz",
      "postalCode" : "30214",
      "town" : "Fayetteville"
    },
    "-KBAAwA3DkYAC9l04stH" : {
      "country" : "Austria",
      "lat" : 46.7231037,
      "lng" : 15.7653147,
      "name" : "martin-martin",
      "postalCode" : "8480",
      "town" : ""
    },
    "-KBAAwA4sdjxlPpFp92G" : {
      "country" : "Estados Unidos",
      "lat" : 33.723039,
      "lng" : -84.3436881,
      "name" : "Kyle",
      "postalCode" : "30316",
      "town" : "Atlanta"
    },
    "-KBAAwA5zNQ0yDOYoJ4x" : {
      "country" : "Estados Unidos",
      "lat" : 45.1056514,
      "lng" : -93.4892746,
      "name" : "Jim",
      "postalCode" : "55311",
      "town" : "Osseo"
    },
    "-KBAAwA6OECz5P4XHT1j" : {
      "country" : "Estados Unidos",
      "lat" : 37.3003688,
      "lng" : -122.0492891,
      "name" : "Kacyn",
      "postalCode" : "95014",
      "town" : "Cupertino"
    },
    "-KBAAwA7HLcS9lqo0OCy" : {
      "country" : "India",
      "lat" : 28.4554726,
      "lng" : 77.0219019,
      "name" : "Shouvik",
      "postalCode" : "122001",
      "town" : "Gurgaon"
    },
    "-KBAAwA97RC5l5GBmJ9Q" : {
      "country" : "Australia",
      "lat" : -33.0218853,
      "lng" : 148.2804541,
      "name" : "Mat",
      "postalCode" : "2870",
      "town" : ""
    },
    "-KBAAwA97RC5l5GBmJ9R" : {
      "country" : "Estados Unidos",
      "lat" : 37.3895297,
      "lng" : -122.0183914,
      "name" : "Randeep",
      "postalCode" : "94085",
      "town" : "Sunnyvale"
    },
    "-KBAAwAAoVlyifQwCnzL" : {
      "country" : "Estados Unidos",
      "lat" : 39.7775841,
      "lng" : -105.1083542,
      "name" : "Natasha Japp",
      "postalCode" : "80033",
      "town" : "Wheat Ridge"
    },
    "-KBAAwACGteGI6uWRoob" : {
      "country" : "Estados Unidos",
      "lat" : 39.908085,
      "lng" : -75.1953934,
      "name" : "Mark",
      "postalCode" : "19145",
      "town" : "Filadelfia"
    },
    "-KBAAwADYPzozaDh2kBv" : {
      "country" : "Estados Unidos",
      "lat" : 37.2638319,
      "lng" : -122.023004,
      "name" : "MsLaura",
      "postalCode" : "95070",
      "town" : "Saratoga"
    },
    "-KBAAwAE1FPSD6oqcRoE" : {
      "country" : "India",
      "lat" : 28.6078909,
      "lng" : 77.3054884,
      "name" : "Harshit",
      "postalCode" : "110091",
      "town" : "Nueva Delhi"
    },
    "-KBAAwAI2CGF2vbzntk7" : {
      "country" : "Rusia",
      "lat" : 55.4616172,
      "lng" : 37.2948354,
      "name" : "A",
      "postalCode" : "142190",
      "town" : ""
    },
    "-KBAAwAJ1ukcROKpgxaI" : {
      "country" : "Estados Unidos",
      "lat" : 38.4244019,
      "lng" : -121.3312882,
      "name" : "Rasheed",
      "postalCode" : "95624",
      "town" : "Elk Grove"
    },
    "-KBAAwAKCCLMC_2nQGzg" : {
      "country" : "Rusia",
      "lat" : 55.6932097,
      "lng" : 37.5495829,
      "name" : "Mark",
      "postalCode" : "119296",
      "town" : "Moscú"
    },
    "-KBAAwALcAfrhVtxcSaF" : {
      "country" : "Estados Unidos",
      "lat" : 37.3785351,
      "lng" : -122.086585,
      "name" : "Nija",
      "postalCode" : "94040 ",
      "town" : "Mountain View"
    },
    "-KBAAwAMcP-fD3jnoBkL" : {
      "country" : "Estados Unidos",
      "lat" : 30.3658304,
      "lng" : -81.49379929999999,
      "name" : "Dino",
      "postalCode" : "32225",
      "town" : "Jacksonville"
    },
    "-KBAAwAMcP-fD3jnoBkM" : {
      "country" : "Estados Unidos",
      "lat" : 42.9511374,
      "lng" : -82.5402275,
      "name" : "Kyle",
      "postalCode" : "48074",
      "town" : "Smiths Creek"
    },
    "-KBAAwANJ9z0wkoFvway" : {
      "country" : "Singapur",
      "lat" : 1.293822,
      "lng" : 103.803042,
      "name" : "Joshua",
      "postalCode" : "140153",
      "town" : "Singapore"
    },
    "-KBAAwAONrdvXMTNET1h" : {
      "country" : "Austria",
      "lat" : 48.1564641,
      "lng" : 16.3910684,
      "name" : "Milo",
      "postalCode" : "1100",
      "town" : "Vienna"
    },
    "-KBAAwAPIVnpkHpcO-kM" : {
      "country" : "Italia",
      "lat" : 45.6807229,
      "lng" : 11.6449395,
      "name" : "Angelo",
      "postalCode" : "36060",
      "town" : ""
    },
    "-KBAAwAQ9FGqq-y97558" : {
      "country" : "Francia",
      "lat" : 50.670738,
      "lng" : 2.8429201,
      "name" : "Cyril",
      "postalCode" : "59193",
      "town" : "Erquinghem-Lys"
    },
    "-KBAAwARuIIkwHCl56r7" : {
      "country" : "Ucrania",
      "lat" : 49.233083,
      "lng" : 28.468217,
      "name" : "p",
      "postalCode" : "21001",
      "town" : "Vinnytsia"
    },
    "-KBAAwATR5EEyJ05zI-s" : {
      "country" : "Estados Unidos",
      "lat" : 28.8360637,
      "lng" : -82.269193,
      "name" : "Katerina ",
      "postalCode" : "34450/1712",
      "town" : "Inverness"
    },
    "-KBAAwATR5EEyJ05zI-t" : {
      "country" : "Estados Unidos",
      "lat" : 37.9538109,
      "lng" : -121.9643745,
      "name" : "Anna",
      "postalCode" : "94521",
      "town" : "Concord"
    },
    "-KBAAwAVIA0-UmmmN-_E" : {
      "country" : "Estados Unidos",
      "lat" : 43.14831710000001,
      "lng" : -88.7301525,
      "name" : "Charlene",
      "postalCode" : "53094",
      "town" : "Watertown"
    },
    "-KBAAwAWb_vWbiJcfCPk" : {
      "country" : "Polonia",
      "lat" : 51.0930709,
      "lng" : 16.9744434,
      "name" : "Grzesiek",
      "postalCode" : "53-239",
      "town" : "Wrocław"
    },
    "-KBAAwAX1XnRzuodSjMb" : {
      "country" : "Estados Unidos",
      "lat" : 42.8104135,
      "lng" : -70.8892886,
      "name" : "Kerry",
      "postalCode" : "01950",
      "town" : "Newburyport"
    },
    "-KBAAwAakj2al-mjHWiw" : {
      "country" : "Estados Unidos",
      "lat" : 39.9396284,
      "lng" : -75.18663959999999,
      "name" : "Phil",
      "postalCode" : "19146",
      "town" : "Filadelfia"
    },
    "-KBAAwAbxxfLNlf4BS3c" : {
      "country" : "Reino Unido",
      "lat" : 51.2404551,
      "lng" : -0.9452066,
      "name" : "Benjamin Fraser",
      "postalCode" : "RG29 1QT",
      "town" : "Odiham"
    },
    "-KBAAwAbxxfLNlf4BS3d" : {
      "country" : "Estados Unidos",
      "lat" : 40.5944059,
      "lng" : -74.0711359,
      "name" : "Alyona",
      "postalCode" : "10305",
      "town" : ""
    },
    "-KBAAwAeNUrHyOUYS8sZ" : {
      "country" : "Estados Unidos",
      "lat" : 25.7616792,
      "lng" : -80.34915989999999,
      "name" : "Syed",
      "postalCode" : "33174",
      "town" : "Miami"
    },
    "-KBAAwAfqBRKZkuI93Hz" : {
      "country" : "Estados Unidos",
      "lat" : 33.6496252,
      "lng" : -117.9190418,
      "name" : "Ben",
      "postalCode" : "92627",
      "town" : "Costa Mesa"
    },
    "-KBAAwAgtUB3KY8RAVWK" : {
      "country" : "India",
      "lat" : 13.0487446,
      "lng" : 77.5923297,
      "name" : "Vishnu Pillai",
      "postalCode" : "560024",
      "town" : "Bangalore"
    },
    "-KBAAwAgtUB3KY8RAVWL" : {
      "country" : "Alemania",
      "lat" : 53.55524940000001,
      "lng" : 9.9807553,
      "name" : "Christian",
      "postalCode" : "20355",
      "town" : "Hamburgo"
    },
    "-KBAAwAh2--1hSegrmep" : {
      "country" : "Estados Unidos",
      "lat" : 32.7361498,
      "lng" : -97.802737,
      "name" : "Deanna",
      "postalCode" : "76086",
      "town" : "Weatherford"
    },
    "-KBAAwAh2--1hSegrmeq" : {
      "country" : "Estados Unidos",
      "lat" : 37.371859,
      "lng" : -122.0212337,
      "name" : "Bhargavi",
      "postalCode" : "94086",
      "town" : "Sunnyvale"
    },
    "-KBAAwAiuedPJ3IQA0Bj" : {
      "country" : "Estados Unidos",
      "lat" : 36.3809052,
      "lng" : -87.6482474,
      "name" : "Zoltan",
      "postalCode" : "37050",
      "town" : "Cumberland City"
    },
    "-KBAAwAjbAKrMUYqKuL4" : {
      "country" : "India",
      "lat" : 13.2974227,
      "lng" : 77.1830243,
      "name" : "Mahakeerthi",
      "postalCode" : "572104",
      "town" : ""
    },
    "-KBAAwAjbAKrMUYqKuL5" : {
      "country" : "Estados Unidos",
      "lat" : 35.8150476,
      "lng" : -78.57744079999999,
      "name" : "RaleighNC_Android",
      "postalCode" : "27604",
      "town" : "Raleigh"
    },
    "-KBAAwAkCEmz5knQ-V6Z" : {
      "country" : "Estados Unidos",
      "lat" : 37.68000019999999,
      "lng" : -122.4863492,
      "name" : "Brody Chen",
      "postalCode" : "94015",
      "town" : "Daly City"
    },
    "-KBAAwAkCEmz5knQ-V6_" : {
      "country" : "Australia",
      "lat" : -27.4522751,
      "lng" : 153.0353622,
      "name" : "Alex Kamrath",
      "postalCode" : "4006",
      "town" : "Brisbane"
    },
    "-KBAAwAlCKLA26l-rzgS" : {
      "country" : "Estados Unidos",
      "lat" : 39.42052959999999,
      "lng" : -76.79135579999999,
      "name" : "Ebow Yawson",
      "postalCode" : "21117",
      "town" : "Owings Mills"
    },
    "-KBAAwAmWCqWXHUruCKt" : {
      "country" : "Alemania",
      "lat" : 51.248009,
      "lng" : 6.7790167,
      "name" : "James",
      "postalCode" : "40476",
      "town" : "Düsseldorf"
    },
    "-KBAAwAmWCqWXHUruCKu" : {
      "country" : "Australia",
      "lat" : -33.8479652,
      "lng" : 150.6517354,
      "name" : "Gareth",
      "postalCode" : "2745",
      "town" : "Sídney"
    },
    "-KBAAwAnpXwy9pYWxFkd" : {
      "country" : "Estados Unidos",
      "lat" : 43.0651073,
      "lng" : -83.624201,
      "name" : "Jacob",
      "postalCode" : "48506",
      "town" : "Flint"
    },
    "-KBAAwAnpXwy9pYWxFke" : {
      "country" : "Estados Unidos",
      "lat" : 41.748902,
      "lng" : -88.0363086,
      "name" : "kevin",
      "postalCode" : "60517",
      "town" : "Woodridge"
    },
    "-KBAAwAo8heO-Nl8O1A5" : {
      "country" : "Sudáfrica",
      "lat" : -26.1206807,
      "lng" : 28.0537367,
      "name" : "Mike",
      "postalCode" : "2196",
      "town" : "Sandton"
    },
    "-KBAAwAo8heO-Nl8O1A6" : {
      "country" : "Reino Unido",
      "lat" : 51.8244561,
      "lng" : -0.8179964,
      "name" : "Bhekinkosi G Sigidi",
      "postalCode" : "HP19 9QP",
      "town" : "Aylesbury"
    },
    "-KBAAwApy5u0fRbS8M7_" : {
      "country" : "Uruguay",
      "lat" : -34.9100207,
      "lng" : -56.1504985,
      "name" : "Maximiliano Pombo",
      "postalCode" : "11300",
      "town" : "Montevideo"
    },
    "-KBAAwAqFNA5w0iq8xKZ" : {
      "country" : "Alemania",
      "lat" : 49.2367587,
      "lng" : 12.5554758,
      "name" : "andreas",
      "postalCode" : "93483",
      "town" : "Pösing"
    },
    "-KBAAwArVx7H8mxUxXXI" : {
      "country" : "Estados Unidos",
      "lat" : 61.14876899999999,
      "lng" : -149.8010811,
      "name" : "James Ives",
      "postalCode" : "99507",
      "town" : "Anchorage"
    },
    "-KBAAwAs-X9IerCB_BJ9" : {
      "country" : "Estados Unidos",
      "lat" : 37.8020405,
      "lng" : -122.4382307,
      "name" : "Acronym",
      "postalCode" : "94123",
      "town" : "San Francisco"
    },
    "-KBAAwAt5V4ePx04fB7C" : {
      "country" : "Dinamarca",
      "lat" : 55.6928897,
      "lng" : 12.547805,
      "name" : "Niels Lindberg-Poulsen",
      "postalCode" : "2200",
      "town" : "København"
    },
    "-KBAAwAt5V4ePx04fB7D" : {
      "country" : "Estados Unidos",
      "lat" : 33.9372725,
      "lng" : -118.1298234,
      "name" : "ivan",
      "postalCode" : "90241",
      "town" : "Downey"
    },
    "-KBAAwAugtxaDwyrwwHi" : {
      "country" : "Estados Unidos",
      "lat" : 47.743604,
      "lng" : -117.4095934,
      "name" : "Ryan",
      "postalCode" : "0297",
      "town" : "Spokane"
    },
    "-KBAAwAxUzxYwZXh9Mq8" : {
      "country" : "Estados Unidos",
      "lat" : 26.2474478,
      "lng" : -80.09260139999999,
      "name" : "slavo",
      "postalCode" : "33062",
      "town" : "Pompano Beach"
    },
    "-KBAAwAyOXBVmT55-Mzo" : {
      "country" : "Canadá",
      "lat" : 43.4816859,
      "lng" : -79.7079096,
      "name" : "Luis Navarrete",
      "postalCode" : "L6H 4W2",
      "town" : "Oakville"
    },
    "-KBAAwAyOXBVmT55-Mzp" : {
      "country" : "Estados Unidos",
      "lat" : 37.5677679,
      "lng" : -122.0522177,
      "name" : "umang",
      "postalCode" : "94555",
      "town" : "Fremont"
    },
    "-KBAAwAyOXBVmT55-Mzq" : {
      "country" : "Australia",
      "lat" : -33.8657305,
      "lng" : 151.20733,
      "name" : "Jezz",
      "postalCode" : "2000",
      "town" : "Sídney"
    },
    "-KBAAwAzAGVkNCyc9OX4" : {
      "country" : "Estados Unidos",
      "lat" : 34.043925,
      "lng" : -118.2424291,
      "name" : "Gabriele",
      "postalCode" : "90013",
      "town" : "Los Ángeles"
    },
    "-KBAAwB-UTTvgOvkXyFF" : {
      "country" : "Estados Unidos",
      "lat" : 42.3043674,
      "lng" : -73.2460582,
      "name" : "Abigail",
      "postalCode" : "01238",
      "town" : "Lee"
    },
    "-KBAAwB-UTTvgOvkXyFG" : {
      "country" : "Estados Unidos",
      "lat" : 35.8520207,
      "lng" : -86.4594276,
      "name" : "Justin",
      "postalCode" : "37128",
      "town" : "Murfreesboro"
    },
    "-KBAAwB1dkHXVlbM5gK3" : {
      "country" : "Estados Unidos",
      "lat" : 42.2129167,
      "lng" : -83.7305392,
      "name" : "John Zukowski",
      "postalCode" : "48108",
      "town" : "Ann Arbor"
    },
    "-KBAAwB1dkHXVlbM5gK4" : {
      "country" : "Australia",
      "lat" : -27.4660994,
      "lng" : 153.023588,
      "name" : "Alex",
      "postalCode" : "4000",
      "town" : "Brisbane"
    },
    "-KBAAwB4ysDUp5o0SwIz" : {
      "country" : "Turquía",
      "lat" : 41.2225817,
      "lng" : 29.0236315,
      "name" : "Katerina",
      "postalCode" : "34450",
      "town" : ""
    },
    "-KBAAwB5Q-5Y_bqh4FvU" : {
      "country" : "Canadá",
      "lat" : 45.5330112,
      "lng" : -73.60469049999999,
      "name" : "NaN",
      "postalCode" : "H2S",
      "town" : "Montreal"
    },
    "-KBAAwB8MqsEEAvpvgUH" : {
      "country" : "Estados Unidos",
      "lat" : 38.70360050000001,
      "lng" : -90.6488505,
      "name" : "Greg",
      "postalCode" : "63304",
      "town" : "St. Charles"
    },
    "-KBAAwB9zbTEzIvTr50J" : {
      "country" : "Estados Unidos",
      "lat" : 64.87739859999999,
      "lng" : -148.3542567,
      "name" : "csgray",
      "postalCode" : "99709",
      "town" : "Fairbanks"
    },
    "-KBAAwB9zbTEzIvTr50K" : {
      "country" : "Alemania",
      "lat" : 48.1127929,
      "lng" : 11.5681872,
      "name" : "Wilfried Hoge",
      "postalCode" : "81543",
      "town" : "Múnich"
    },
    "-KBAAwBAM5NMSFeeY7Rb" : {
      "country" : "Estados Unidos",
      "lat" : 34.0796167,
      "lng" : -118.2585096,
      "name" : "Jacob",
      "postalCode" : "90026",
      "town" : "Los Ángeles"
    },
    "-KBAAwBAM5NMSFeeY7Rc" : {
      "country" : "Estados Unidos",
      "lat" : 37.7202042,
      "lng" : -122.4099154,
      "name" : "Philip",
      "postalCode" : "94134",
      "town" : "San Francisco"
    },
    "-KBAAwBAM5NMSFeeY7Rd" : {
      "country" : "Estados Unidos",
      "lat" : 33.9734553,
      "lng" : -117.3263893,
      "name" : "Enrique Cahua",
      "postalCode" : "92507",
      "town" : "Riverside"
    },
    "-KBAAwBBtCc4HbPcodDP" : {
      "country" : "Estados Unidos",
      "lat" : 34.1286356,
      "lng" : -117.2089374,
      "name" : "Jason",
      "postalCode" : "92346",
      "town" : "Highland"
    },
    "-KBAAwBBtCc4HbPcodDQ" : {
      "country" : "Estados Unidos",
      "lat" : 43.0651073,
      "lng" : -83.624201,
      "name" : "Jacob",
      "postalCode" : "48506",
      "town" : "Flint"
    }
  }
}
